[
    {
      "name": "Ripstop by the Roll",
      "website": "https://ripstopbytheroll.com/",
      "city": "Durham, NC",
      "country": "US",
      "lat": 36.00969,
      "long": -78.87149,
      "friend": "TRUE"
    },
    {
      "name": "Discovery Fabrics",
      "website": "https://discoveryfabrics.com/",
      "city": "Campbell, BC",
      "country": "CA",
      "lat": 50.02373,
      "long": -125.25464,
      "friend": "TRUE"
    },
    {
      "name": "Quest Outfitters",
      "website": "https://www.questoutfitters.com/",
      "city": "Sarasota, FL",
      "country": "US",
      "lat": 27.28279,
      "long": -82.4463,
      "friend": "TRUE"
    },
    {
      "name": "Refasten",
      "website": "https://refasten.ca/",
      "city": "Ottawa, ON",
      "country": "CA",
      "lat": 45.421532,
      "long": -75.697189,
      "friend": ""
    },
    {
      "name": "Mozet Supplies",
      "website": "https://mozetsupplies.ca/",
      "city": "Victoria, CA",
      "country": "CA",
      "lat": 48.42836,
      "long": -123.35879,
      "friend": "TRUE"
    },
    {
      "name": "PacCana",
      "website": "https://www.paccana.com/",
      "city": "Calgary, CA",
      "country": "CA",
      "lat": 51.077,
      "long": -114.01372,
      "friend": ""
    },
    {
      "name": "Rockywoods",
      "website": "https://www.rockywoods.com/",
      "city": "Loveland, CO",
      "country": "US",
      "lat": 40.39539,
      "long": -105.07696,
      "friend": ""
    },
    {
      "name": "Seattle Fabrics",
      "website": "https://www.seattlefabrics.com/",
      "city": "Seattle, WA",
      "country": "US",
      "lat": 47.69221,
      "long": -122.34385,
      "friend": ""
    },
    {
      "name": "ExtremTextil",
      "website": "https://www.extremtextil.de/en/",
      "city": "Berlin, DE",
      "country": "DE",
      "lat": 52.50077,
      "long": 13.42065,
      "friend": "TRUE"
    },
    {
      "name": "Monkey Puzzle Fabrics",
      "website": "https://www.makeyourowngear.com.au/",
      "city": "Blackheath, NSW",
      "country": "AU",
      "lat": -33.63748,
      "long": 150.28403,
      "friend": ""
    },
    {
      "name": "A+ Products",
      "website": "https://www.aplusproducts.net/",
      "city": "Marlboro, NJ",
      "country": "US",
      "lat": 40.31365,
      "long": -74.25847,
      "friend": ""
    },
    {
      "name": "Strapworks",
      "website": "https://www.strapworks.com/",
      "city": "Eugene, OR",
      "country": "US",
      "lat": 44.04663,
      "long": -123.08899,
      "friend": ""
    },
    {
      "name": "Jontay",
      "website": "https://jontay.com/",
      "city": "Blackshear, GA",
      "country": "US",
      "lat": 31.301,
      "long": -82.24369,
      "friend": ""
    },
    {
      "name": "Dutchware Gear",
      "website": "https://dutchwaregear.com/",
      "city": "Lancaster, PA",
      "country": "US",
      "lat": 40.03788,
      "long": -76.30551,
      "friend": ""
    },
    {
      "name": "Contact Left",
      "website": "https://www.contactleft.co.uk/",
      "city": "Liverpool, UK",
      "country": "GB",
      "lat": 53.41037,
      "long": -2.97938,
      "friend": ""
    },
    {
      "name": "JT's Outdoor Fabrics",
      "website": "https://jtsoutdoorfabrics.com/",
      "city": "Barrie, ON",
      "country": "CA",
      "lat": 44.33146,
      "long": -79.68131,
      "friend": ""
    },
    {
      "name": "Sailrite",
      "website": "https://www.sailrite.com/",
      "city": "Columbia City, IN",
      "country": "US",
      "lat": 41.14696,
      "long": -85.44622,
      "friend": ""
    },
    {
      "name": "The Trimming Shop",
      "website": "https://trimmingshop.co.uk/",
      "city": "Cheshunt, UK",
      "country": "GB",
      "lat": 51.7028,
      "long": -0.0291,
      "friend": ""
    },
    {
      "name": "Point North Profabrics",
      "website": "https://www.profabrics.co.uk/",
      "city": "Chester, UK",
      "country": "GB",
      "lat": 53.12188,
      "long": -2.76746,
      "friend": ""
    },
    {
      "name": "Pennine Outdoors",
      "website": "https://www.pennineoutdoor.co.uk/",
      "city": "High Bentham, UK",
      "country": "GB",
      "lat": 54.11823,
      "long": -2.51199,
      "friend": ""
    },
    {
      "name": "Hudson's Supplies",
      "website": "https://www.hudson4supplies.com/",
      "city": "Montreal, QC",
      "country": "CA",
      "lat": 45.50008,
      "long": -73.66585,
      "friend": ""
    },
    {
      "name": "Outdoor Experten",
      "website": "https://www.outdoorexperten.se/",
      "city": "Västerås, SE",
      "country": "SE",
      "lat": 59.61187,
      "long": 16.61122,
      "friend": ""
    },
    {
      "name": "Tactical Trim",
      "website": "https://www.tacticaltrim.de/",
      "city": "Berlin, DE",
      "country": "DE",
      "lat": 52.428389,
      "long": 13.381763,
      "friend": ""
    },
    {
      "name": "Wawak",
      "website": "https://www.wawak.com/",
      "city": "Conklin, NY",
      "country": "US",
      "lat": 42.0663,
      "long": -75.81536,
      "friend": "TRUE"
    },
    {
      "name": "AdventurExpert",
      "website": "https://www.adventurexpert.com/",
      "city": "Domžale, Slovenia",
      "country": "SI",
      "lat": 46.12284,
      "long": 14.61172,
      "friend": "TRUE"
    },
    {
      "name": "The Rain Shed",
      "website": "https://www.therainshed.com/",
      "city": "Cle Elum, WA",
      "country": "US",
      "lat": 47.19437,
      "long": -120.93742,
      "friend": ""
    },
    {
      "name": "Mill Yardage",
      "website": "https://www.millyardage.com/",
      "city": "Rollinsford, NH",
      "country": "US",
      "lat": 43.23523,
      "long": -70.81722,
      "friend": ""
    },
    {
      "name": "Outdoor Wilderness Fabrics",
      "website": "https://www.owfinc.com/",
      "city": "Caldwell, ID",
      "country": "US",
      "lat": 43.66944,
      "long": -116.69425,
      "friend": ""
    },
    {
      "name": "Ripstop.pl",
      "website": "https://www.ripstop.pl/",
      "city": "Poznań, PL",
      "country": "PL",
      "lat": 52.40589,
      "long": 16.92168,
      "friend": ""
    },
    {
      "name": "Hofman Outdoor Gear Supply",
      "website": "https://hofmanoutdoorgearsupply.ca/",
      "city": "Portage la Prairie, Manitoba",
      "country": "CA",
      "lat": 49.97331,
      "long": -98.2944,
      "friend": ""
    },
    {
      "name": "Shelby Outdoor",
      "website": "https://www.shelbyoutdoor.com/",
      "city": "Oulu, Finland", 
      "country": "FI",
      "lat": 65.02769,
      "long": 25.4702384,
      "friend": ""
    },
    {
      "name": "Thelin Outdoor",
      "website": "https://thelinoutdoor.se",
      "city": "Lidköping, Sweden",
      "country": "SE",
      "lat": 58.4994758,
      "long": 13.1574837,
      "friend": ""
    },
    {
      "name": "Aktivstoffe.de",
      "website": "https://www.aktivstoffe.de/",
      "city": "Quakenbrück, DE",
      "country": "DE",
      "lat": 52.67065,
      "long": 7.923957,
      "friend": ""
    }
  ]